{
  "ultima_atualizacao": "2026-04-09T13:57:55.085774",
  "fonte": "CPTEC/INPE",
  "praias": [
    {
      "nome": "Copacabana",
      "lat": -22.9711,
      "lon": -43.1822,
      "onda": 1.3,
      "vento": 4.13,
      "agitacao": "Fraco",
      "direcao": "E",
      "score": 10
    },
    {
      "nome": "Arpoador",
      "lat": -22.987,
      "lon": -43.191,
      "onda": 1.3,
      "vento": 4.13,
      "agitacao": "Fraco",
      "direcao": "E",
      "score": 10
    },
    {
      "nome": "Ipanema",
      "lat": -22.9836,
      "lon": -43.2045,
      "onda": 1.3,
      "vento": 4.13,
      "agitacao": "Fraco",
      "direcao": "E",
      "score": 10
    },
    {
      "nome": "Leblon",
      "lat": -22.9896,
      "lon": -43.2249,
      "onda": 1.3,
      "vento": 4.13,
      "agitacao": "Fraco",
      "direcao": "E",
      "score": 10
    },
    {
      "nome": "Barra da Tijuca",
      "lat": -23.0016,
      "lon": -43.3659,
      "onda": 1.3,
      "vento": 4.13,
      "agitacao": "Fraco",
      "direcao": "E",
      "score": 10
    },
    {
      "nome": "Recreio",
      "lat": -23.0293,
      "lon": -43.48,
      "onda": 1.3,
      "vento": 4.13,
      "agitacao": "Fraco",
      "direcao": "E",
      "score": 10
    },
    {
      "nome": "Grumari",
      "lat": -23.05,
      "lon": -43.53,
      "onda": 1.3,
      "vento": 4.13,
      "agitacao": "Fraco",
      "direcao": "E",
      "score": 10
    },
    {
      "nome": "Prainha",
      "lat": -23.0444,
      "lon": -43.5136,
      "onda": 1.3,
      "vento": 4.13,
      "agitacao": "Fraco",
      "direcao": "E",
      "score": 10
    },
    {
      "nome": "Flamengo",
      "lat": -22.93,
      "lon": -43.175,
      "onda": 1.3,
      "vento": 4.13,
      "agitacao": "Fraco",
      "direcao": "E",
      "score": 10
    },
    {
      "nome": "Botafogo",
      "lat": -22.95,
      "lon": -43.18,
      "onda": 1.3,
      "vento": 4.13,
      "agitacao": "Fraco",
      "direcao": "E",
      "score": 10
    }
  ]
}