{
  "ultima_atualizacao": "2026-04-22T15:05:03.793724",
  "fonte_ondas": "CPTEC/INPE",
  "fonte_balneabilidade": "praialimpa.net",
  "praia_recomendada": "Leme",
  "praias": [
    {
      "nome": "Leme",
      "lat": -22.9647,
      "lon": -43.1726,
      "onda": 1.0,
      "vento": 3.4,
      "agitacao": "Moderado",
      "direcao": "SE",
      "balneabilidade": "propria",
      "regiao": "Rio de Janeiro",
      "score": 135
    },
    {
      "nome": "Copacabana",
      "lat": -22.9711,
      "lon": -43.1823,
      "onda": 1.0,
      "vento": 3.4,
      "agitacao": "Moderado",
      "direcao": "SE",
      "balneabilidade": "propria",
      "regiao": "Rio de Janeiro",
      "score": 135
    },
    {
      "nome": "Flamengo",
      "lat": -22.9313,
      "lon": -43.1731,
      "onda": 1.0,
      "vento": 3.4,
      "agitacao": "Moderado",
      "direcao": "SE",
      "balneabilidade": "propria",
      "regiao": "Rio de Janeiro",
      "score": 135
    },
    {
      "nome": "Jurujuba",
      "lat": -22.9219,
      "lon": -43.0891,
      "onda": 1.0,
      "vento": 4.5,
      "agitacao": "Moderado",
      "direcao": "SE",
      "balneabilidade": "propria",
      "regiao": "Niterói",
      "score": 135
    },
    {
      "nome": "Piratininga",
      "lat": -22.9604,
      "lon": -43.0541,
      "onda": 1.0,
      "vento": 4.5,
      "agitacao": "Moderado",
      "direcao": "SE",
      "balneabilidade": "propria",
      "regiao": "Niterói",
      "score": 135
    },
    {
      "nome": "Vidigal",
      "lat": -22.9944,
      "lon": -43.2407,
      "onda": 1.16,
      "vento": 3.4,
      "agitacao": "Moderado",
      "direcao": "SE",
      "balneabilidade": "propria",
      "regiao": "Rio de Janeiro",
      "score": 135
    },
    {
      "nome": "Sao Conrado",
      "lat": -23.0103,
      "lon": -43.2795,
      "onda": 1.16,
      "vento": 3.4,
      "agitacao": "Moderado",
      "direcao": "SE",
      "balneabilidade": "propria",
      "regiao": "Rio de Janeiro",
      "score": 135
    },
    {
      "nome": "Recreio dos Bandeirantes",
      "lat": -23.0182,
      "lon": -43.4665,
      "onda": 1.12,
      "vento": 5.0,
      "agitacao": "Moderado",
      "direcao": "SE",
      "balneabilidade": "propria",
      "regiao": "Rio de Janeiro",
      "score": 135
    },
    {
      "nome": "Prainha",
      "lat": -23.0369,
      "lon": -43.5163,
      "onda": 1.1,
      "vento": 5.0,
      "agitacao": "Moderado",
      "direcao": "SE",
      "balneabilidade": "propria",
      "regiao": "Rio de Janeiro",
      "score": 135
    },
    {
      "nome": "Ipanema",
      "lat": -22.9838,
      "lon": -43.2046,
      "onda": 1.16,
      "vento": 3.4,
      "agitacao": "Moderado",
      "direcao": "SE",
      "balneabilidade": "propria",
      "regiao": "Rio de Janeiro",
      "score": 135
    },
    {
      "nome": "Leblon",
      "lat": -22.9867,
      "lon": -43.2234,
      "onda": 1.16,
      "vento": 3.4,
      "agitacao": "Moderado",
      "direcao": "SE",
      "balneabilidade": "propria",
      "regiao": "Rio de Janeiro",
      "score": 135
    },
    {
      "nome": "Macumba",
      "lat": -23.0228,
      "lon": -43.4908,
      "onda": 1.12,
      "vento": 5.0,
      "agitacao": "Moderado",
      "direcao": "SE",
      "balneabilidade": null,
      "regiao": null,
      "score": 35
    },
    {
      "nome": "Icarai",
      "lat": -22.9027,
      "lon": -43.1123,
      "onda": 0.66,
      "vento": 4.5,
      "agitacao": "Moderado",
      "direcao": "SE",
      "balneabilidade": "impropria",
      "regiao": "Niterói",
      "score": -45
    },
    {
      "nome": "Ramos",
      "lat": -22.8558,
      "lon": -43.2102,
      "onda": 0.66,
      "vento": 3.4,
      "agitacao": "Moderado",
      "direcao": "SE",
      "balneabilidade": "impropria",
      "regiao": "Niterói",
      "score": -45
    },
    {
      "nome": "Botafogo",
      "lat": -22.9519,
      "lon": -43.1823,
      "onda": 1.0,
      "vento": 3.4,
      "agitacao": "Moderado",
      "direcao": "SE",
      "balneabilidade": "impropria",
      "regiao": "Rio de Janeiro",
      "score": -65
    },
    {
      "nome": "Barra da Tijuca",
      "lat": -23.0108,
      "lon": -43.3654,
      "onda": 1.14,
      "vento": 2.2,
      "agitacao": "Moderado",
      "direcao": "SE",
      "balneabilidade": "impropria",
      "regiao": "Rio de Janeiro",
      "score": -65
    }
  ]
}