{
  "ultima_atualizacao": "2026-04-09T11:15:25.216729",
  "fonte_ondas": "CPTEC/INPE",
  "fonte_balneabilidade": "praialimpa.net",
  "praia_recomendada": "Copacabana",
  "praias": [
    {
      "nome": "Copacabana",
      "lat": -22.9711,
      "lon": -43.1822,
      "onda": 1.3,
      "vento": 4.13,
      "agitacao": "Fraco",
      "direcao": "E",
      "balneabilidade": "propria",
      "regiao": "Rio de Janeiro",
      "score": 140
    },
    {
      "nome": "Arpoador",
      "lat": -22.987,
      "lon": -43.191,
      "onda": 1.3,
      "vento": 4.13,
      "agitacao": "Fraco",
      "direcao": "E",
      "balneabilidade": "propria",
      "regiao": "Rio de Janeiro",
      "score": 140
    },
    {
      "nome": "Recreio",
      "lat": -23.0293,
      "lon": -43.48,
      "onda": 1.3,
      "vento": 4.13,
      "agitacao": "Fraco",
      "direcao": "E",
      "balneabilidade": "propria",
      "regiao": "Rio de Janeiro",
      "score": 140
    },
    {
      "nome": "Grumari",
      "lat": -23.05,
      "lon": -43.53,
      "onda": 1.3,
      "vento": 4.13,
      "agitacao": "Fraco",
      "direcao": "E",
      "balneabilidade": "propria",
      "regiao": "Rio de Janeiro",
      "score": 140
    },
    {
      "nome": "Prainha",
      "lat": -23.0444,
      "lon": -43.5136,
      "onda": 1.3,
      "vento": 4.13,
      "agitacao": "Fraco",
      "direcao": "E",
      "balneabilidade": "propria",
      "regiao": "Rio de Janeiro",
      "score": 140
    },
    {
      "nome": "Flamengo",
      "lat": -22.93,
      "lon": -43.175,
      "onda": 1.3,
      "vento": 4.13,
      "agitacao": "Fraco",
      "direcao": "E",
      "balneabilidade": "propria",
      "regiao": "Rio de Janeiro",
      "score": 140
    },
    {
      "nome": "Ipanema",
      "lat": -22.9836,
      "lon": -43.2045,
      "onda": 1.3,
      "vento": 4.13,
      "agitacao": "Fraco",
      "direcao": "E",
      "balneabilidade": "impropria",
      "regiao": "Rio de Janeiro",
      "score": -60
    },
    {
      "nome": "Leblon",
      "lat": -22.9896,
      "lon": -43.2249,
      "onda": 1.3,
      "vento": 4.13,
      "agitacao": "Fraco",
      "direcao": "E",
      "balneabilidade": "impropria",
      "regiao": "Rio de Janeiro",
      "score": -60
    },
    {
      "nome": "Barra da Tijuca",
      "lat": -23.0016,
      "lon": -43.3659,
      "onda": 1.3,
      "vento": 4.13,
      "agitacao": "Fraco",
      "direcao": "E",
      "balneabilidade": "impropria",
      "regiao": "Rio de Janeiro",
      "score": -60
    },
    {
      "nome": "Botafogo",
      "lat": -22.95,
      "lon": -43.18,
      "onda": 1.3,
      "vento": 4.13,
      "agitacao": "Fraco",
      "direcao": "E",
      "balneabilidade": "impropria",
      "regiao": "Rio de Janeiro",
      "score": -60
    }
  ]
}